<?xml version="1.0" encoding="utf-8" ?>
<country ID="086" code="086000" name="">

<province code="440000" name="广东省">
    <city code="440000" name="广东省">
        <piecearea code="440000" name="广东省" lng="113.3948175587587" lat="23.40800372902474"/>
    </city>
    <city code="440100" name="广州市">
        <piecearea code="440101" name="广州市" lng="113.482" lat="23.21" station="59287"/>
        <piecearea code="440103" name="荔湾区" lng="113.2358" lat="23.1464" station="G3222"/>
        <piecearea code="440104" name="越秀区" lng="113.2978" lat="23.1314" station="G3218"/>
        <piecearea code="440105" name="海珠区" lng="113.3497" lat="23.0922" station="G3309"/>
        <piecearea code="440106" name="天河区" lng="113.3333" lat="23.1667" station="G1099"/>
        <piecearea code="440111" name="白云区" lng="113.2511" lat="23.2678" station="G3346"/>
        <piecearea code="440112" name="黄埔区" lng="113.4531" lat="23.0947" station="G1032"/>
        <piecearea code="440113" name="番禺区" lng="113.319" lat="22.938" station="59481"/>
        <piecearea code="440114" name="花都区" lng="113.237" lat="23.42" station="59284"/>
        <piecearea code="440115" name="南沙区" lng="113.5531" lat="22.7072" station="G3239"/>
        <piecearea code="440184" name="从化区" lng="113.616" lat="23.569" station="59285"/>
        <piecearea code="440183" name="增城区" lng="113.828" lat="23.335" station="59294"/>
        <piecearea code="440183" name="萝岗区" lng="113.482" lat="23.21" station="59287"/>
    </city>
    <city code="440200" name="韶关市"> 
        <piecearea code="440201" name="韶关市" lng="113.608" lat="24.671" station="59082"/>
        <piecearea code="440203" name="武江区" lng="113.5497" lat="24.7697" station="G4403"/>
        <piecearea code="440204" name="浈江区" lng="113.56 " lat="24.8292" station="G4405"/>
        <piecearea code="440205" name="曲江区" lng="113.608" lat="24.671" station="59082"/>
        <piecearea code="440222" name="始兴县" lng="114.047" lat="24.961" station="59090"/>
        <piecearea code="440224" name="仁化县" lng="113.763" lat="25.059" station="57989"/>
        <piecearea code="440229" name="翁源县" lng="114.113" lat="24.348" station="59094"/>
        <piecearea code="440232" name="乳源县" lng="113.287" lat="24.784" station="59081"/>
        <piecearea code="440233" name="新丰县" lng="114.192" lat="24.056" station="59097"/>
        <piecearea code="440281" name="乐昌市" lng="113.345" lat="25.11" station="57988"/>
        <piecearea code="440282" name="南雄市" lng="114.255" lat="25.081" station="57996"/>
    </city>
    <city code="440300" name="深圳市" >
        <piecearea code="440301" name="深圳市" lng="114.003" lat="22.542" station="59493"/>
        <piecearea code="440303" name="罗湖区" lng="113.9203" lat="22.5472" station="G3522"/>
        <piecearea code="440305" name="南山区" lng="113.9203" lat="22.53" station="G3555"/>
        <piecearea code="440308" name="盐田区" lng="114.2239" lat="22.555" station="G3535"/>
        <piecearea code="4403xx" name="福田区" lng="114.0036" lat="22.5417" station="G3501"/>
        <piecearea code="440306" name="宝安区" lng="113.8978" lat="22.7047" station="G3531"/>
        <piecearea code="44030xx" name="坪山区" lng="114.3411" lat="22.6942" station="G3538"/>
        <piecearea code="44030xx" name="光明新区" lng="113.9536" lat="22.7622" station="G3528"/>
        <piecearea code="44030xx" name="大鹏新区" lng="114.47" lat="22.6003" station="G1162"/>
        <piecearea code="44030xx" name="龙华区" lng="114.0397" lat="22.7078" station="G3543"/>
        <piecearea code="44030xx" name="龙岗区" lng="114.2422" lat="22.7242" station="G3570" />
    </city>
    <city code="440400" name="珠海市" >
        <piecearea code="440401" name="珠海市" lng="113.567" lat="22.275" station="59488"/>
        <piecearea code="440403" name="斗门区" lng="113.297" lat="22.229" station="59487"/>
<!--         <piecearea code="440402" name="香洲区" lng="113.53373098039063" lat="22.265599835349548" />
        <piecearea code="440404" name="金湾区" lng="113.41758987065974" lat="22.04721492726036"/>
        <piecearea code="440404" name="高新区" lng="113.56244702618993" lat="22.25691464612574"/>
        <piecearea code="440404" name="保税区" lng="113.51625322121971" lat="22.173959567146063"/>
        <piecearea code="440404" name="万山区" lng="113.56244702618993" lat="22.25691464612574"/>
        <piecearea code="440404" name="横琴新区" lng="113.55604791545103" lat="22.117772180127176"/>
        <piecearea code="440404" name="高栏港区" lng="113.56244702618993" lat="22.25691464612574"/> -->
    </city>
    <city code="440500" name="汕头市" >
        <piecearea code="440501" name="汕头市" lng="116.679" lat="23.385" station="59316"/>
        <piecearea code="440513" name="潮阳区" lng="116.589" lat="23.258" station="59318"/>
        <piecearea code="440514" name="潮南区" lng="116.4333" lat="23.25" station="G1317"/>
        <piecearea code="440515" name="澄海区" lng="116.836" lat="23.431" station="59319"/>
        <piecearea code="440523" name="南澳县" lng="117.029" lat="23.428" station="59324"/>
      <!--   <piecearea code="440507" name="龙湖区" lng="116.75934746239437" lat="23.408849226222035"/>
        <piecearea code="440511" name="金平区" lng="116.65179359137319" lat="23.399887892781113"/>
        <piecearea code="440512" name="濠江区" lng="116.71136293852987" lat="23.282442837576834"/> -->
    </city>
    <city code="440600" name="佛山市">
        <piecearea code="440601" name="佛山市" lng="113.1340" lat="23.0350" station="59288"/>
        <piecearea code="440604" name="禅城区" lng="113.1031" lat="22.98" station="G2222"/>
        <piecearea code="440605" name="南海区" lng="113.009" lat="23.145" station="59288"/>
        <piecearea code="440606" name="顺德区" lng="113.244" lat="22.849" station="59480"/>
        <piecearea code="440607" name="三水区" lng="112.877" lat="23.197" station="59279"/>
        <piecearea code="440608" name="高明区" lng="112.8822" lat="22.8942" station="G2212"/>
    </city>
    <city code="440700" name="江门市">
        <piecearea code="440701" name="江门市" lng="113.0667" lat="22.5667" station="G2101"/>
        <piecearea code="440703" name="蓬江区" lng="113.0667" lat="22.5667" station="G2101"/>
        <piecearea code="440704" name="江海区" lng="113.0833" lat="22.5833" station="G2127" />
        <piecearea code="440705" name="新会区" lng="113.035" lat="22.532" station="59476" />
        <piecearea code="440781" name="台山市" lng="112.786" lat="22.247" station="59478"/>
        <piecearea code="440783" name="开平市" lng="112.652" lat="22.404" station="59475"/>
        <piecearea code="440784" name="鹤山市" lng="112.981" lat="22.737" station="59473"/>
        <piecearea code="440785" name="恩平市" lng="112.231" lat="22.266" station="59477"/>
    </city>
    <city code="440800" name="湛江市">
        <piecearea code="440801" name="湛江市" lng="110.302" lat="21.155" station="59658"/>
<!--         <piecearea code="440802" name="赤坎区" lng="110.37972297262078" lat="21.287667885106625"/>
        <piecearea code="440803" name="霞山区" lng="110.38519600027726" lat="21.204847397300146"/>
        <piecearea code="440804" name="坡头区" lng="110.51272613161117" lat="21.28381977487281"/>
        <piecearea code="440811" name="麻章区" lng="110.33802177707052" lat="21.094100364978857"/>
        <piecearea code="4408xx" name="南山区" lng="110.36506726285033" lat="21.257463103764316"/>
        <piecearea code="4408xx" name="开发区" lng="110.36506726285033" lat="21.257463103764316"/> -->
        <piecearea code="440823" name="遂溪县" lng="110.244" lat="21.404"station="59650"/>
        <piecearea code="440825" name="徐闻县" lng="110.179" lat="20.337" station="59754"/>
        <piecearea code="440881" name="廉江市" lng="110.303" lat="21.633" station="59654"/>
        <piecearea code="440882" name="雷州市" lng="110.068" lat="20.962" station="59750"/>
        <piecearea code="440883" name="吴川市" lng="110.81" lat="21.406" station="59656"/>
    </city>
    <city code="440900" name="茂名市">
        <piecearea code="440901" name="茂名市" lng="110.912" lat="21.749" station="59659"/>
        <!-- <piecearea code="440901" name="市区" lng="110.93124533067585" lat="21.66822571882161"/> -->
        <piecearea code="440902" name="茂南区" lng="110.9097" lat="21.66" station="G2509"/>
        <piecearea code="440904" name="电白区" lng="111.0642" lat="21.4647" station="G7911"/>
        <piecearea code="440904" name="电白" lng="110.989" lat="21.546" station="59664"/>
        <piecearea code="440981" name="高州市" lng="110.828" lat="21.919" station="59653"/>
        <piecearea code="440982" name="化州市" lng="110.614" lat="21.647" station="59655"/>
        <piecearea code="440983" name="信宜市" lng="110.925" lat="22.347" station="59456"/>
<!--         <piecearea code="4409xx" name="滨海新区" lng="117.64628627057449" lat="39.05917663803484"/> -->
    </city>
    <city code="441200" name="肇庆市">
        <piecearea code="441201" name="肇庆市" lng="12.8272" at="23.3567" station="G2601"/>
        <piecearea code="441202" name="端州区" lng="112.8272" lat="23.3567" station="G2601"/>
        <piecearea code="441203" name="鼎湖区" lng="112.5683" lat="23.1681" station="G2681"/>
        <!-- <piecearea code="4412xx" name="大旺区" lng="112.58819002730934" lat="23.65623413345976"/> -->
        <piecearea code="441223" name="广宁县" lng="112.424" lat="23.637"station="59271"/>
        <piecearea code="441224" name="怀集县" lng="112.177" lat="23.931" station="59270"/>
        <piecearea code="441225" name="封开县" lng="111.505" lat="23.392" station="59264"/>
        <piecearea code="441226" name="德庆县" lng="111.778" lat="23.165" station="59269"/>
        <piecearea code="441283" name="高要市" lng="112.479" lat="22.991" station="59278"/>
        <piecearea code="441284" name="四会市" lng="112.655" lat="23.348" station="59276"/>
    </city>
    <city code="441300" name="惠州市">
        <piecearea code="441301" name="惠州市" lng="114.6683" lat="23.0261" station="59492"/>
        <piecearea code="441302" name="惠城区" lng="114.374" lat="23.071" station="59298"/>
        <piecearea code="441303" name="惠阳区" lng="114.4572" lat="22.8281" station="G5445"/>
        <piecearea code="441322" name="博罗县" lng="114.256" lat="23.179" station="59297"/>
        <piecearea code="441323" name="惠东县" lng="114.6683" lat="23.0261" station="59492"/>
        <piecearea code="441324" name="龙门县" lng="114.265" lat="23.781" station="59290"/>
        <piecearea code="4413xx" name="大亚湾区" lng="114.5317" lat="22.7422" station="G1701"/>
        <piecearea code="4413xx" name="仲恺高新区" lng="114.3256" lat="23.0094" station="G5302"/>
    </city>
    <city code="441400" name="梅州市">
        <piecearea code="441401" name="梅州市" lng="116.1147" lat="24.2844" station="G1601"/>
        <!-- <piecearea code="441402" name="梅江区" lng="116.11595202018196" lat="24.29075035490101"/> -->
        <piecearea code="441403" name="梅县区" lng="116.069" lat="24.281" station="59117"/>
        <piecearea code="441422" name="大埔县" lng="116.7" lat="24.344" station="59116"/>
        <piecearea code="441423" name="丰顺县" lng="116.174" lat="23.77" station="59310"/>
        <piecearea code="441424" name="五华县" lng="115.751" lat="23.911" station="59303"/>
        <piecearea code="441426" name="平远县" lng="115.8706" lat="24.5625" station="59106"/>
        <piecearea code="441427" name="蕉岭县" lng="116.17" lat="116.17" station="59114"/>
        <piecearea code="441481" name="兴宁市" lng="115.716" lat="24.168" station="59109"/>
    </city>
    <city code="441500" name="汕尾市">
        <piecearea code="441501" name="汕尾市" lng="115.361" lat="22.792" station="59501 "/>
        <!-- <piecearea code="441502" name="市城区" lng="115.3729242893998" lat="22.77873050016389"/> -->
        <piecearea code="441521" name="海丰县" lng="115.313" lat="23.018" station="59500"/>
        <piecearea code="441523" name="陆河县" lng="115.6575" lat="23.2878" station="G1802"/>
        <piecearea code="441581" name="陆丰市" lng="115.6519" lat="22.9653" station="59502"/>
<!-- <piecearea code="4415xx" name="华侨管理区" lng="115.92538011175107" lat="22.995578290009494"/>
    <piecearea code="4415xx" name="深汕特别合作区" lng="115.3729242893998" lat="22.77873050016389"/> -->
        <piecearea code="4415xx" name="红海湾经济开发区" lng="115.5014" lat="22.7278" station="G1801"/>
    </city>
    <city code="441600" name="河源市">
        <piecearea code="441601" name="河源市" lng="114.73" lat="23.794" station="59293"/>
        <piecearea code="441602" name="源城区" lng="114.7097" lat="23.7397" station="G1508 "/>
        <piecearea code="441621" name="紫金县" lng="115.176" lat="23.629" station="59304"/>
        <piecearea code="441622" name="龙川县" lng="115.276" lat="24.114" station="59107"/>
        <piecearea code="441623" name="连平县" lng="114.49" lat="24.368" station="59096"/>
        <piecearea code="441624" name="和平县" lng="114.927" lat="24.448" station="59099"/>
<!--         <piecearea code="441625" name="东源县" lng="114.8269460853825" lat="23.93305255659844"/>
        <piecearea code="4416xx" name="江东新区" lng="114.71372147587483" lat="23.757250850469006"/> -->
    </city>
    <city code="441700" name="阳江市">
        <piecearea code="441701" name="阳江市" lng="111.978" lat="21.845" station="59663"/>
        <!-- <piecearea code="441702" name="江城区" lng="111.93003574135153" lat="21.76280363707374"/> -->
        <piecearea code="441723" name="阳东区" lng="112.0156" lat="21.875" station="G2326"/>
        <piecearea code="4417xx" name="海陵岛实验区" lng="111.8367" lat="21.5739" station="G2304"/>
        <piecearea code="441721" name="阳西县" lng="111.6167" lat="21.75" station="G2331"/>
        <piecearea code="441781" name="阳春市" lng="111.787" lat="22.164" station="59469"/>
    </city>
    <city code="441800" name="清远市">
        <piecearea code="441801" name="清远市" lng="113.085" lat="23.711" station="59280"/>
<!--         <piecearea code="441802" name="清城区" lng="113.11458528252464" lat="23.625855965259543"/>
        <piecearea code="441827" name="清新区" lng="112.88654838725384" lat="23.899181235748948"/> -->
        <piecearea code="441821" name="佛冈县" lng="113.523" lat="23.881" station="59087"/>
        <piecearea code="441823" name="阳山县" lng="112.632" lat="24.473" station="59075"/>
        <piecearea code="441825" name="连山县" lng="112.073" lat="24.573" station="59074"/>
        <piecearea code="441826" name="连南县" lng="112.278" lat="24.732" station="59071"/>
        <piecearea code="441881" name="英德市" lng="113.413" lat="24.191" station="59088"/>
        <piecearea code="441882" name="连州市" lng="112.371" lat="24.811" station="59072"/>
    </city>
    <city code="441900" name="东莞市">
        <piecearea code="441900" name="东莞市" lng="113.739" lat="22.966" station="59289"/>
    </city>
    <city code="442000" name="中山市">
        <piecearea code="442000" name="中山市" lng="113.405" lat="22.511" station="59485"/>
    </city>
    <city code="445100" name="潮州市">
        <piecearea code="445101" name="潮州市" lng="116.699" lat="23.669" station="59312"/>
<!--         <piecearea code="445102" name="湘桥区" lng="116.67789952964416" lat="23.700043577114194"/>
        <piecearea code="4451xx" name="枫溪区" lng="116.61168426351982" lat="23.637443796558255"/> -->
        <piecearea code="445103" name="潮安区" lng="116.7667" lat="23.6333" station="G2822"/>
        <piecearea code="445122" name="饶平县" lng="116.986" lat="23.679" station="59313"/>
    </city>
    <city code="445200" name="揭阳市">
        <piecearea code="445201" name="揭阳市" lng="116.398" lat="23.588" station="59315"/>
        <piecearea code="445202" name="榕城区" lng="116.3611" lat="23.5358" station="G2909"/>
        <piecearea code="445221" name="揭东县" lng="116.4" lat="23.59" station="G2919"/>
<!--         <piecearea code="4452xx" name="空巷区" lng="116.37950085538243" lat="23.547999466926136"/>
        <piecearea code="4452xx" name="蓝城区" lng="116.16061283590717" lat="23.57579445557722"/> -->
        <piecearea code="445222" name="揭西县" lng="115.849" lat="23.45" station="59306"/>
        <piecearea code="445224" name="惠来县" lng="116.301" lat="22.984" station="59317"/>
        <piecearea code="445281" name="普宁市" lng="116.131" lat="23.294" station="59314"/>
    </city>
    <city code="445300" name="云浮市">
        <piecearea code="445301" name="云浮市" lng="112.053" lat="22.941" station="59471"/>
        <piecearea code="445302" name="云城区" lng="112.0394" lat="22.9156" station="G3004"/>
        <piecearea code="445303" name="云安区" lng="112" lat="23.0667" station="G3021"/>
        <piecearea code="445321" name="新兴县" lng="112.208" lat="22.702" station="59470"/>
        <piecearea code="445322" name="郁南县" lng="111.543" lat="23.26" station="59268"/>
        <piecearea code="445381" name="罗定市" lng="111.6" lat="22.71" station="59462"/>
    </city>
</province>

</country>
